Timestamp,City,Latitude,Longitude,PM10_ug_m3,PM2_5_ug_m3,Carbon_Monoxide_ug_m3,Nitrogen_Dioxide_ug_m3,Ozone_ug_m3,Dust_ug_m3,UV_Index,European_AQI,Hazardous_Event
2026-02-15T13:00,Mexico City,19.4326,-99.1332,25.3,25.0,271.0,4.5,184.0,0.0,9.25,70,0
2025-09-30T23:00,Tokyo,35.6895,139.6917,23.5,20.1,321.0,53.1,41.0,1.0,0.0,25,0
2026-01-10T09:00,Sao Paulo,-23.5505,-46.6333,7.5,7.5,306.0,9.0,154.0,0.0,6.4,64,0
2026-02-08T01:00,Tehran,35.6892,51.389,61.9,59.3,4049.0,85.9,7.0,5.0,0.0,107,1
2026-04-15T02:00,Delhi,28.6139,77.209,129.5,36.9,635.0,16.5,89.0,176.0,0.0,159,1
2025-12-07T09:00,Beijing,39.9042,116.4074,164.4,154.6,1388.0,35.9,11.0,14.0,0.45,177,1
2025-08-11T14:00,Mumbai,19.076,72.8777,53.2,26.5,170.0,4.6,101.0,41.0,7.05,49,0
2025-11-01T22:00,Mexico City,19.4326,-99.1332,35.2,34.8,546.0,68.6,37.0,1.0,0.0,64,0
2025-09-16T06:00,Moscow,55.7558,37.6173,47.1,38.7,289.0,38.7,14.0,0.0,0.0,63,0